---
angular:
  x: -0.16724415925965785
  y: 0.01465825281637858
  z: -0.009678161181231881
linear:
  x: 0.008781416269746208
  y: -0.007642273029222041
  z: 0.006724269017820992
orientation:
  w: -0.00027300389423533553
  x: -0.00012816275114958638
  y: 0.0001313063812944957
  z: -0.9999999459009071
position:
  x: 6.938556763949045
  y: -2.093478683026018
  z: 7.761373721111575e-06
timestamp: 1739096394.7443311
---
angular:
  x: -0.17457818950111173
  y: -0.04744625077940478
  z: 0.01804894271289239
linear:
  x: -0.001918808118134165
  y: 0.0008683604714154851
  z: -0.005264199908281677
orientation:
  w: -0.00021757597256439498
  x: 6.362941947432407e-05
  y: -3.066953626978035e-05
  z: -0.9999999738356861
position:
  x: 6.938568252928962
  y: -2.0929391142150227
  z: -1.8958578730077225e-05
timestamp: 1739096394.9436178
---
angular:
  x: 0.2099514239083742
  y: 0.18062879033755905
  z: -0.11974061385987823
linear:
  x: -0.010242875252479548
  y: 0.006639236175216999
  z: 0.007706305771721777
orientation:
  w: -1.0557619845079561e-05
  x: -0.00012463665484250327
  y: 5.3640026535337256e-05
  z: -0.9999999907384941
position:
  x: 6.93857745329095
  y: -2.092921427797943
  z: -1.76512652391575e-05
timestamp: 1739096395.143927
---
angular:
  x: -0.006649659999497487
  y: 0.1706831159846009
  z: 0.13567944425412404
linear:
  x: -0.01700005320222004
  y: -0.00018119163222798002
  z: -0.007528438748541527
orientation:
  w: 6.742512809180969e-05
  x: -3.114847723171002e-05
  y: 6.453093761160184e-05
  z: -0.9999999951596912
position:
  x: 6.938574897603934
  y: -2.09242856155246
  z: -4.152448640248191e-05
timestamp: 1739096395.3440673
---
angular:
  x: -0.06818815437065598
  y: -0.03002287204814546
  z: 0.09983200621310433
linear:
  x: -0.0075108187188707215
  y: 0.0010061781109783987
  z: -0.0033097401115135235
orientation:
  w: 0.00016177348023703133
  x: 5.415506760741414e-06
  y: -0.00013079803397209448
  z: -0.9999999783459436
position:
  x: 6.938575343306621
  y: -2.092153977867005
  z: 7.646979418261812e-06
timestamp: 1739096395.5459712
---
angular:
  x: 0.07945349464056745
  y: 0.0933556792972296
  z: -0.18465372831901578
linear:
  x: -0.010316457893263093
  y: 0.0030175800033572834
  z: -0.011022892461406288
orientation:
  w: -0.00011091557114055246
  x: -2.2772768176253247e-05
  y: -7.741640465279588e-05
  z: -0.9999999905929188
position:
  x: 6.938528582561207
  y: -2.0918526876494523
  z: -3.2592429847516646e-05
timestamp: 1739096395.745158
---
angular:
  x: -0.06377424854589535
  y: -0.010665312231920156
  z: -0.06993637869339185
linear:
  x: -0.007206036035044134
  y: -0.0010141330411573856
  z: 0.005582710335280544
orientation:
  w: 8.239783488768849e-05
  x: -2.309340094493698e-05
  y: -3.173049257660219e-06
  z: -0.9999999963336117
position:
  x: 6.938586137614232
  y: -2.0917420577955315
  z: -6.193479074996511e-06
timestamp: 1739096395.9463966
---
angular:
  x: -0.13794027009102236
  y: -0.1277867894876052
  z: -0.1496359088809129
linear:
  x: 0.0010756795089276166
  y: -0.0026099407971232553
  z: -0.012338529186841458
orientation:
  w: -5.606574802201661e-05
  x: -9.335550230576292e-05
  y: -0.00010106793882201546
  z: -0.999999988963327
position:
  x: 6.938537658849192
  y: -2.091402784362614
  z: -2.6730818224074415e-05
timestamp: 1739096396.1457207
---
angular:
  x: -0.13539134080725113
  y: -0.09948002355774078
  z: -0.07857960349167877
linear:
  x: -0.0029077632378639766
  y: -0.007139889207742218
  z: -0.004907679839242889
orientation:
  w: -9.510873411564493e-05
  x: -9.298454625828302e-05
  y: 0.0001460548971981874
  z: -0.9999999804880848
position:
  x: 6.938572040769097
  y: -2.091034176700064
  z: 4.5333746785669593e-07
timestamp: 1739096396.3455267
---
angular:
  x: 0.010182939038161592
  y: -0.015127706382601134
  z: -0.016399585235088908
linear:
  x: 0.01035685950891832
  y: 0.0028060777682618384
  z: 0.005563864402730933
orientation:
  w: -8.401703372317159e-05
  x: 3.766333369536914e-05
  y: -2.4477267326828605e-05
  z: -0.9999999954617373
position:
  x: 6.938600789976818
  y: -2.090782292271292
  z: -9.882129562266417e-06
timestamp: 1739096396.5455017
---
angular:
  x: -0.023330504977768375
  y: -0.14762070681451755
  z: 0.038972464436676416
linear:
  x: 0.013391906152084826
  y: 0.001389192825827781
  z: -0.003515040401814398
orientation:
  w: -0.0001962755490681551
  x: -0.00016895255474273722
  y: 6.896181379332596e-06
  z: -0.9999999664416924
position:
  x: 6.938584766445814
  y: -2.0904256501262384
  z: -3.549201183115913e-05
timestamp: 1739096396.745618
---
angular:
  x: -0.0358720266605075
  y: -0.005585577031325794
  z: 0.06417092843995302
linear:
  x: 0.006250021453609689
  y: 0.0021493334838879764
  z: 0.007610437893492076
orientation:
  w: -5.8490639036580634e-05
  x: -0.00010411183136803039
  y: 8.747804729114283e-06
  z: -0.9999999928315239
position:
  x: 6.938559515031816
  y: -2.0903168007157182
  z: 9.439958411537608e-06
timestamp: 1739096396.9463067
---
angular:
  x: 0.15958796897365998
  y: -0.025498444151332657
  z: 0.011375074773815608
linear:
  x: 0.010520776992805438
  y: 0.005199447958029023
  z: -0.009191957456592738
orientation:
  w: 0.00013958504977093082
  x: 1.4610375465452151e-05
  y: -2.4801271062944766e-05
  z: -0.999999989843724
position:
  x: 6.938587484007748
  y: -2.0900064489932375
  z: 5.55270889797399e-06
timestamp: 1739096397.1478586
---
angular:
  x: -0.09802800398957477
  y: -0.08127396652321087
  z: -0.07765607312691372
linear:
  x: -0.0015281764865102522
  y: -0.006022371481883739
  z: -0.011641244738239213
orientation:
  w: -0.0001014924570801436
  x: -0.00011871184309630861
  y: 8.312631498765464e-05
  z: -0.9999999843483975
position:
  x: 6.9385755316832745
  y: -2.089695138603379
  z: -1.741136379636299e-05
timestamp: 1739096397.3466692
---
angular:
  x: 0.058717580671279225
  y: -0.13269625870028204
  z: 0.10313429211798741
linear:
  x: 2.8240327420328386e-05
  y: 0.0028438591310555256
  z: -0.01130993297910316
orientation:
  w: 0.0001708909732083883
  x: -1.4728794090237078e-05
  y: -7.842584506902892e-05
  z: -0.9999999822143621
position:
  x: 6.93857162017266
  y: -2.0894709337070307
  z: 1.6152004089435568e-05
timestamp: 1739096397.548555
---
angular:
  x: 0.048861694239998255
  y: -0.0174919293990929
  z: 0.041117575187238055
linear:
  x: 0.0030249807571643326
  y: 0.003442247185664991
  z: 0.0048266714688343475
orientation:
  w: -0.00023685024234273893
  x: -6.405687302190543e-05
  y: 0.0001307142808823778
  z: -0.9999999613562276
position:
  x: 6.93855101341709
  y: -2.0889354463179575
  z: -9.748873706201533e-06
timestamp: 1739096397.747824
---
angular:
  x: -0.11827804257059382
  y: -0.003856450072176256
  z: -0.07012988216156796
linear:
  x: -0.006711817369622292
  y: -0.004172422783782541
  z: 0.0018808215678637237
orientation:
  w: 0.00022474366366373428
  x: -1.7409816370225783e-05
  y: -4.756794385744209e-05
  z: -0.999999973462237
position:
  x: 6.938549448805317
  y: -2.0887064222638236
  z: -1.2147169209934805e-05
timestamp: 1739096397.946995
---
angular:
  x: 0.15395403431419874
  y: -0.06270455323265378
  z: 0.12210600170373474
linear:
  x: 0.0011304103153183041
  y: 0.012005068819420393
  z: -0.004450606600435507
orientation:
  w: -0.00014563006997574753
  x: -5.956700596106618e-05
  y: -9.925558693081321e-06
  z: -0.9999999875725688
position:
  x: 6.938569044896114
  y: -2.088414994070774
  z: -1.12894781710976e-05
timestamp: 1739096398.147685
---
angular:
  x: -0.2087334827861974
  y: -0.014901185372529033
  z: -0.10317853185158182
linear:
  x: -0.003955307035951339
  y: -0.013838887594741976
  z: -0.0013406480317738722
orientation:
  w: 3.431450197244522e-05
  x: 2.1667830890711975e-05
  y: -9.498485543436379e-05
  z: -0.9999999946654486
position:
  x: 6.938577019064782
  y: -2.0881435232350456
  z: -3.921239376908359e-05
timestamp: 1739096398.3489296
---
angular:
  x: -0.06860275603044341
  y: 0.06995275518203463
  z: -0.021884578713864115
linear:
  x: -0.014040488974770268
  y: 0.00046497828400660123
  z: 0.004910261115471529
orientation:
  w: -6.883614876339905e-05
  x: -6.401568371724271e-05
  y: -8.492451415281374e-05
  z: -0.999999991975702
position:
  x: 6.93858025923675
  y: -2.087835702688998
  z: -3.6082333513265397e-06
timestamp: 1739096398.547762
---
angular:
  x: -0.10364074833260964
  y: 0.09563493358841473
  z: 0.004680031726281862
linear:
  x: 0.011283455191787617
  y: -0.0014588445234919208
  z: -0.002349053134146147
orientation:
  w: -0.00014185551441221037
  x: -9.289743806062422e-05
  y: -0.00014546954089510937
  z: -0.9999999750428455
position:
  x: 6.938564192782781
  y: -2.0875410002639474
  z: -2.0250162383675385e-05
timestamp: 1739096398.7478359
---
angular:
  x: -0.28607759894428586
  y: -0.0749192383426548
  z: -0.08583249470751507
linear:
  x: -0.018693106949853436
  y: -0.013643236009639185
  z: -0.011995831592515823
orientation:
  w: -0.00011849406682556031
  x: 5.778458618729849e-05
  y: 2.5813281894472322e-05
  z: -0.9999999909768861
position:
  x: 6.93853708445348
  y: -2.0874253982385573
  z: -2.1357649331019135e-05
timestamp: 1739096398.9479563
---
angular:
  x: -0.03496261069663127
  y: 0.2225471560335768
  z: 0.07570840242115988
linear:
  x: -0.001976937778708143
  y: 0.003889176039344613
  z: -0.009932032120468112
orientation:
  w: 5.130865476327771e-06
  x: -0.00010609939843266142
  y: -0.00021360986524130785
  z: -0.9999999715437082
position:
  x: 6.938572167015299
  y: -2.0868565545260145
  z: -4.8304490741182815e-05
timestamp: 1739096399.1481543
---
angular:
  x: -0.06737684227728244
  y: -0.004323673756714044
  z: 0.026232602725939934
linear:
  x: -0.005491433413509975
  y: -0.002278314165232386
  z: 0.007319967497670675
orientation:
  w: -4.339792699832996e-05
  x: -5.636087951870042e-06
  y: -3.908785907473894e-05
  z: -0.9999999982784968
position:
  x: 6.938579070398851
  y: -2.086759356883352
  z: 6.074672344223708e-06
timestamp: 1739096399.3482938
---
angular:
  x: -0.1197465914221943
  y: -0.09489923121076677
  z: 0.14818645284451537
linear:
  x: 0.00843736878166383
  y: -0.001966045230829206
  z: -0.0013479446696233542
orientation:
  w: -8.6382863091402e-05
  x: 4.305913377899369e-05
  y: -0.00011791006134919393
  z: -0.9999999883905647
position:
  x: 6.938580873700993
  y: -2.08635898906684
  z: 6.982695732037081e-06
timestamp: 1739096399.5487707
---
angular:
  x: -0.03662065537097964
  y: -0.038955920172574106
  z: -0.03392651298332232
linear:
  x: 0.005164906796455825
  y: -0.003400528421470146
  z: -0.002580270859606567
orientation:
  w: 0.0002563352600401246
  x: 2.0872109136386173e-05
  y: 1.9448478032242413e-05
  z: -0.9999999667391726
position:
  x: 6.938566190171029
  y: -2.085949704855195
  z: -4.042706571151522e-06
timestamp: 1739096399.7493014
---
angular:
  x: 0.08807368544611568
  y: -0.011801447766034888
  z: 0.023752788274487454
linear:
  x: 0.006131782181708627
  y: 0.008180867165558917
  z: 0.0038307929210496645
orientation:
  w: -0.00010908197415625742
  x: 2.119587587654546e-05
  y: -2.358257305807824e-05
  z: -0.9999999935478601
position:
  x: 6.938540418489494
  y: -2.085665615307045
  z: -1.1549364041928134e-05
timestamp: 1739096399.948757
---
angular:
  x: -0.046513355482513105
  y: 0.08311642799440598
  z: 0.04742981734286713
linear:
  x: -0.0014150007051907504
  y: 0.003101481091076875
  z: 0.004181295013513564
orientation:
  w: -9.414571795972898e-05
  x: 5.358806618712518e-05
  y: 5.653038495504193e-05
  z: -0.9999999925346092
position:
  x: 6.9385908893812545
  y: -2.0855353317862644
  z: -1.8674842337834674e-05
timestamp: 1739096400.1488013
---
angular:
  x: -0.044225505031044575
  y: 0.06074377411293392
  z: -0.046056548647365955
linear:
  x: -0.000757328763501004
  y: -0.0015827482235811112
  z: 0.004523518650790472
orientation:
  w: -1.1802884567483873e-05
  x: -8.245701182041516e-05
  y: 0.00013232929521892416
  z: -0.9999999877752453
position:
  x: 6.93858263116645
  y: -2.0853444559367573
  z: -2.448608316355655e-05
timestamp: 1739096400.3488142
---
angular:
  x: -0.2758755380008024
  y: -0.08568687975256342
  z: 0.08644090973799233
linear:
  x: 0.003770693356785413
  y: -0.005321505712416082
  z: -0.008362792064379156
orientation:
  w: 9.609283236679773e-05
  x: 0.0001560348101066664
  y: -0.0003579686935822924
  z: -0.9999999191388567
position:
  x: 6.9386049383131105
  y: -2.08507913144799
  z: -2.092238197211327e-05
timestamp: 1739096400.549303
---
angular:
  x: 0.24673632549539126
  y: 0.024356975038877973
  z: 0.08412519088526675
linear:
  x: 0.00047247667266667073
  y: 0.014800971126923945
  z: -0.008814463824718346
orientation:
  w: -0.0001384349927148223
  x: 4.937800639780431e-05
  y: 0.00019179884679519678
  z: -0.9999999708053835
position:
  x: 6.93859806644669
  y: -2.0846349127442503
  z: -3.586924353266019e-05
timestamp: 1739096400.753252
---
angular:
  x: 0.0009894571355964568
  y: -0.06356931297394239
  z: 0.15873102713046394
linear:
  x: -0.010292219420016745
  y: 0.001115224600162156
  z: 0.0037968971250523
orientation:
  w: 0.00014939844122385842
  x: 5.47180493587566e-06
  y: -8.871556016617364e-05
  z: -0.9999999848898572
position:
  x: 6.938548739901519
  y: -2.0843813682373913
  z: 6.726217386496258e-06
timestamp: 1739096400.9519954
---
angular:
  x: 0.008228254570069298
  y: 0.018810090612296753
  z: -0.11697277450214896
linear:
  x: -0.0020754219121943258
  y: 0.0018040680219074384
  z: -0.0007063259536818019
orientation:
  w: 5.371002432645598e-05
  x: 3.953249605540142e-05
  y: -0.00012717823800262193
  z: -0.9999999896890555
position:
  x: 6.9385842007603475
  y: -2.083935082908597
  z: -1.0716170899205402e-05
timestamp: 1739096401.1500466
---
angular:
  x: -0.14077483112610015
  y: -0.06491561098699984
  z: -0.06324277503986139
linear:
  x: 0.004962378720853601
  y: -0.0033775169449322645
  z: -0.008993272164380735
orientation:
  w: -3.7462891535445862e-06
  x: -0.00010233805513555879
  y: -0.00012575446155190938
  z: -0.9999999868493515
position:
  x: 6.938586942043864
  y: -2.083877598976164
  z: -5.577634438827528e-07
timestamp: 1739096401.3497667
---
angular:
  x: 0.30401016844671397
  y: 0.04062048835453683
  z: -0.07936275034457774
linear:
  x: 0.006799655303072587
  y: 0.01502310473159812
  z: -0.008956841737065534
orientation:
  w: 0.00016375550715211118
  x: 6.580508005819611e-05
  y: -4.1797696208414744e-05
  z: -0.9999999835533888
position:
  x: 6.938578854801053
  y: -2.08388487218625
  z: -1.129437523388066e-06
timestamp: 1739096401.5497842
---
angular:
  x: -0.23577323676021988
  y: 0.2515339257771975
  z: 0.11435094635431324
linear:
  x: -0.012215075170679685
  y: -0.00011442879958873699
  z: 0.0012671994946728054
orientation:
  w: -0.00010983824006899206
  x: -0.00015709940616220923
  y: -0.00018548314424410008
  z: -0.9999999644256699
position:
  x: 6.938574258766813
  y: -2.083549189941517
  z: -6.97146998088205e-06
timestamp: 1739096401.749779
---
angular:
  x: 0.10230374483398993
  y: -0.008846946451286156
  z: 0.003221688194890736
linear:
  x: -0.003716807142921171
  y: 0.009409343674508758
  z: 0.006380417110951308
orientation:
  w: 4.574550966643194e-05
  x: -0.0002536821039296599
  y: -0.00013202875868983545
  z: -0.999999958060572
position:
  x: 6.938556706860358
  y: -2.083399727456578
  z: 3.7172902001163244e-05
timestamp: 1739096401.9504347
---
angular:
  x: -0.18392774452059915
  y: -0.02931476553370174
  z: 0.06428684155690609
linear:
  x: 0.0022946555917062223
  y: -0.007914772595065693
  z: -0.010856592811250362
orientation:
  w: -0.00012245186470179187
  x: -0.00012969324542888493
  y: -5.9382045778118745e-05
  z: -0.9999999823294877
position:
  x: 6.938536243772092
  y: -2.0831300299017617
  z: -2.2019621269207812e-05
timestamp: 1739096402.1528492
---
angular:
  x: 0.031066818314704578
  y: -0.07526421602753869
  z: -0.17601467343744143
linear:
  x: -0.003889130739591158
  y: 0.008779795459419896
  z: 0.004730769069896359
orientation:
  w: -0.00029573149431099874
  x: 9.246685543270466e-06
  y: 4.8335726485833335e-05
  z: -0.9999999550605189
position:
  x: 6.938548753244899
  y: -2.0828689730392447
  z: 6.387575302871373e-06
timestamp: 1739096402.3510711
---
angular:
  x: -0.15743273577633268
  y: 0.07256987497011964
  z: -0.031873172437138886
linear:
  x: 0.004013080695423263
  y: -0.007944750563391736
  z: 0.005587002303432151
orientation:
  w: 0.00016228202523742234
  x: -0.00012490592544458983
  y: -5.1630214498367715e-05
  z: -0.9999999776986874
position:
  x: 6.938565745257987
  y: -2.0823990513279487
  z: 1.783941759599117e-06
timestamp: 1739096402.5505116
---
angular:
  x: -0.05193556323128129
  y: -0.11104281481250608
  z: 0.08333959722425426
linear:
  x: 0.007313239512500158
  y: -0.005275754111177174
  z: -0.0036883229374515014
orientation:
  w: -6.0971306307703055e-05
  x: 5.443379729939846e-05
  y: 7.665813160422022e-05
  z: -0.9999999937214962
position:
  x: 6.938584656631176
  y: -2.082123236201669
  z: -1.8870060350388573e-05
timestamp: 1739096402.7506883
---
angular:
  x: 0.1568512350236968
  y: -0.06764373190781922
  z: -0.07162071228029077
linear:
  x: 0.0058434373932310345
  y: 0.009772160302522561
  z: -0.00444090510642067
orientation:
  w: 4.499498774798911e-05
  x: 7.131307296810221e-05
  y: -9.955250402847872e-05
  z: -0.9999999914895978
position:
  x: 6.938572143600452
  y: -2.081587844020634
  z: -1.4722386112192565e-05
timestamp: 1739096402.95082
---
angular:
  x: -0.21018991387290697
  y: 0.14700513628034337
  z: 0.05428341762070065
linear:
  x: 0.005293414263454694
  y: -0.008565403263102279
  z: -0.021596148551341
orientation:
  w: -0.0002129508446110397
  x: -0.0001347435748951869
  y: -2.2446660920048357e-05
  z: -0.9999999679961266
position:
  x: 6.938570363187209
  y: -2.081346676465744
  z: -4.203943495721674e-05
timestamp: 1739096403.15129
---
angular:
  x: -0.037552577058374934
  y: 0.05531474858847638
  z: 0.08171015482805025
linear:
  x: 0.00020126272589484446
  y: -0.0035858472579299878
  z: 0.016349662149315387
orientation:
  w: 0.0001191097303081754
  x: -2.738964177301171e-05
  y: 7.102052697122476e-05
  z: -0.9999999900093821
position:
  x: 6.9385342617014505
  y: -2.081041891849918
  z: -2.035265515145518e-05
timestamp: 1739096403.3514776
---
angular:
  x: 0.003812287381116275
  y: -0.01667719580036972
  z: -0.06691404628566835
linear:
  x: -0.020274575896757484
  y: 0.005397425760574754
  z: 0.010113634450005052
orientation:
  w: -0.00011674330217567001
  x: -8.596550187595839e-05
  y: 5.191214845223877e-05
  z: -0.9999999881430314
position:
  x: 6.938563100849317
  y: -2.0808102994785824
  z: -4.2425640749979565e-05
timestamp: 1739096403.5515301
---
angular:
  x: -0.0376389939839285
  y: -0.07054895976619775
  z: -0.0817278945147476
linear:
  x: 0.0018739834135332398
  y: 0.0023607560762157805
  z: 0.005817793572826437
orientation:
  w: 7.116173964957068e-05
  x: 5.286494241362589e-05
  y: -4.439942004251649e-05
  z: -0.999999995084998
position:
  x: 6.938578602543606
  y: -2.0804706831357906
  z: -2.106122059414295e-05
timestamp: 1739096403.7518466
---
angular:
  x: 0.375822137826953
  y: 0.13199646815961585
  z: 0.015399759262425544
linear:
  x: 0.0014746992614029161
  y: 0.022360369905899135
  z: -0.008722704476123623
orientation:
  w: 3.8010743892805994e-05
  x: -7.368102128550691e-05
  y: 0.00022083949759896677
  z: -0.9999999721781029
position:
  x: 6.938579837185211
  y: -2.079977483345026
  z: -1.790615530273404e-05
timestamp: 1739096403.9528039
---
angular:
  x: -0.15362199981703242
  y: 0.013535600494389188
  z: -0.07171289160662497
linear:
  x: 0.005319410624231285
  y: -0.0018584082051927254
  z: -0.0025034154102898678
orientation:
  w: 4.5314157105745006e-05
  x: -0.00016311952629757159
  y: -0.0001253917581567357
  z: -0.9999999778077769
position:
  x: 6.938581000453424
  y: -2.0795189615822482
  z: 8.659701642460549e-06
timestamp: 1739096404.1540835
---
angular:
  x: 0.01636838423644084
  y: -0.08611173808928524
  z: 0.021508206327472655
linear:
  x: 0.0010826506840378633
  y: -0.004564068160513781
  z: 0.0007514553278485075
orientation:
  w: 4.8799979954593675e-06
  x: 6.166168108403149e-06
  y: -2.5911404975182403e-05
  z: -0.9999999996333815
position:
  x: 6.938587538460811
  y: -2.0790648983390416
  z: -8.747139769102463e-07
timestamp: 1739096404.353361
---
angular:
  x: 0.06723709668227956
  y: 0.005671339122216803
  z: 5.391344001413916e-05
linear:
  x: -1.302365936301723e-05
  y: 0.0033240079074703683
  z: -0.004136241394521101
orientation:
  w: 0.9993427995424801
  x: 1.4513753516096824e-05
  y: 8.9603899818469e-06
  z: 0.03624870634465384
position:
  x: 8.986938324077418
  y: 2.476564724497894
  z: -7.999360942070183e-05
timestamp: 1739103941.3566892
---
angular:
  x: 0.06660710666486595
  y: 0.0059207936903806465
  z: 0.00028830350446786327
linear:
  x: -1.7993217179999898e-05
  y: 0.003301408344702623
  z: 0.005639690637541332
orientation:
  w: 0.999340774718988
  x: -1.918501254213409e-05
  y: 7.341525390055001e-06
  z: 0.03630448404936367
position:
  x: 8.986945589419081
  y: 2.476632811041952
  z: -7.585759926771046e-05
timestamp: 1739103941.5452306
---
angular:
  x: -0.15354746520991386
  y: -0.003940395378973526
  z: 0.0013846350880939535
linear:
  x: -6.105421614349406e-05
  y: -0.005882179999915454
  z: -0.003251362469425833
orientation:
  w: 0.9993387294379686
  x: -6.228515070822429e-05
  y: 9.779719987682439e-06
  z: 0.036360691278134856
position:
  x: 8.98695263954284
  y: 2.4767004649750795
  z: -8.324613989385554e-05
timestamp: 1739103941.744134
---
angular:
  x: 0.06722158725210797
  y: 0.005693447897649252
  z: 8.583176155718247e-05
linear:
  x: -1.3904879368087158e-05
  y: 0.003320288759189867
  z: -0.004136137215318917
orientation:
  w: 0.9993366879100515
  x: 1.4507005825913062e-05
  y: 8.955808358444313e-06
  z: 0.036416808019217574
position:
  x: 8.98695991389244
  y: 2.476777499874477
  z: -7.99944221947721e-05
timestamp: 1739103941.9443765
---
angular:
  x: 0.06659194008607866
  y: 0.005942999876639022
  z: 0.00031870456546322865
linear:
  x: -1.8897636537556475e-05
  y: 0.0032978432088220724
  z: 0.005639777224237412
orientation:
  w: 0.9993346010942953
  x: -1.9185464735678024e-05
  y: 7.331872732811565e-06
  z: 0.03647402683921148
position:
  x: 8.986967122559458
  y: 2.476845214788282
  z: -7.585839061100691e-05
timestamp: 1739103942.1441348
---
angular:
  x: -0.15353117630353405
  y: -0.0040040105827545075
  z: 0.0013973019706776278
linear:
  x: -5.8979992879775784e-05
  y: -0.005883373755292801
  z: -0.0032518837762197527
orientation:
  w: 0.9993324960853978
  x: -6.228536942066388e-05
  y: 9.757318428732784e-06
  z: 0.036531606768056085
position:
  x: 8.986974118490496
  y: 2.47691251510521
  z: -8.324726764658702e-05
timestamp: 1739103942.344772
---
angular:
  x: 0.06720840504579176
  y: 0.005715989158956282
  z: 0.00011283124801043927
linear:
  x: -1.484081606973345e-05
  y: 0.00331715501907131
  z: -0.004136067744034037
orientation:
  w: 0.9993303978276531
  x: 1.4499487763984177e-05
  y: 8.952822852421044e-06
  z: 0.036589010470859315
position:
  x: 8.986981335999385
  y: 2.4769892165346543
  z: -7.99949500407196e-05
timestamp: 1739103942.5444725
---
angular:
  x: 0.06657888218868534
  y: 0.005965569158667865
  z: 0.0003445161892242723
linear:
  x: -1.98494182783744e-05
  y: 0.003294824077204731
  z: 0.005639831418678672
orientation:
  w: 0.9993282568470202
  x: -1.9187553783803178e-05
  y: 7.323593612239123e-06
  z: 0.03664743709045769
position:
  x: 8.986988492308898
  y: 2.477056617927463
  z: -7.585890716498705e-05
timestamp: 1739103942.7450085
---
angular:
  x: -0.15351724960923951
  y: -0.0040660984786101625
  z: 0.0014080336403465867
linear:
  x: -5.6930896858235205e-05
  y: -0.005884402819200491
  z: -0.0032523145352517375
orientation:
  w: 0.9993260992285888
  x: -6.228724143537147e-05
  y: 9.7372437562917e-06
  z: 0.03670617694691905
position:
  x: 8.98699543816747
  y: 2.4771236175946427
  z: -8.324809144994588e-05
timestamp: 1739103942.9445674
---
angular:
  x: 0.06719682896694218
  y: 0.005738880064937837
  z: 0.00013629603148012734
linear:
  x: -1.581271534265873e-05
  y: 0.0033144413120190872
  z: -0.004136024020139064
orientation:
  w: 0.9993239504744724
  x: 1.4491505492996854e-05
  y: 8.95093619151853e-06
  z: 0.0367646803055787
position:
  x: 8.987002602887271
  y: 2.4772000323322505
  z: -7.999528464806838e-05
timestamp: 1739103943.1455
---
angular:
  x: 0.0665673054057877
  y: 0.005988466412192595
  z: 0.00036706649292506967
linear:
  x: -2.083101085003904e-05
  y: 0.0032921908730786306
  z: 0.0056398635191546535
orientation:
  w: 0.9993217607596142
  x: -1.9190784325403396e-05
  y: 7.316245356411631e-06
  z: 0.03682415037025151
position:
  x: 8.987009710619208
  y: 2.4772671609264383
  z: -7.585922663669309e-05
timestamp: 1739103943.3449247
---
angular:
  x: -0.15350510599623532
  y: -0.004127242283217364
  z: 0.0014172173031939022
linear:
  x: -5.488903782558733e-05
  y: -0.005885305048181359
  z: -0.003252673190182297
orientation:
  w: 0.9993195558028377
  x: -6.229024063348459e-05
  y: 9.718768382589038e-06
  z: 0.036883891002585385
position:
  x: 8.987016610233788
  y: 2.477333898704157
  z: -8.324868803009922e-05
timestamp: 1739103943.54518
---
angular:
  x: 0.0671866518848871
  y: 0.005762141474132451
  z: 0.00015660961380350395
linear:
  x: -1.6808286102387325e-05
  y: 0.0033120883909476552
  z: -0.004135998654832516
orientation:
  w: 0.9993173617561439
  x: 1.4483465730323004e-05
  y: 8.949820223944693e-06
  z: 0.03694333773321419
position:
  x: 8.987023726226901
  y: 2.4774100645482546
  z: -7.999548307183191e-05
timestamp: 1739103943.7453253
---
angular:
  x: 0.06655705445408196
  y: 0.006011722574592992
  z: 0.0003866893308467706
linear:
  x: -2.1838303426597206e-05
  y: 0.003289893129514852
  z: 0.0056398808585497165
orientation:
  w: 0.9993151283311223
  x: -1.919463078354637e-05
  y: 7.309529807884279e-06
  z: 0.03700370071613755
position:
  x: 8.987030789225486
  y: 2.477476956613991
  z: -7.585941454280043e-05
timestamp: 1739103943.9454818
---
angular:
  x: -0.15349426629128823
  y: -0.004187943506470807
  z: 0.0014252359892331613
linear:
  x: -5.284315981343382e-05
  y: -0.005886106665196763
  z: -0.003252973251543495
orientation:
  w: 0.9993128803760414
  x: -6.229382783088186e-05
  y: 9.70138960005463e-06
  z: 0.03706431086506022
position:
  x: 8.987037645074915
  y: 2.477543464500658
  z: -8.324912871744e-05
timestamp: 1739103944.145346
---
angular:
  x: 0.0671773987853604
  y: 0.005785771331818886
  z: 0.00017488480401546872
linear:
  x: -1.7839500966747377e-05
  y: 0.003309972782622074
  z: -0.004135982578224069
orientation:
  w: 0.9993106445366182
  x: 1.4475469941640026e-05
  y: 8.949268321686057e-06
  z: 0.037124593279662756
position:
  x: 8.98704471371313
  y: 2.4776194081730774
  z: -7.999560448317122e-05
timestamp: 1739103944.345484
---
angular:
  x: 0.06654762665872271
  y: 0.0060353100945660055
  z: 0.0004044317410181533
linear:
  x: -2.2877498710949576e-05
  y: 0.0032878136924775372
  z: 0.005639889444707713
orientation:
  w: 0.9993083703800312
  x: -1.919880431980845e-05
  y: 7.303215516628838e-06
  z: 0.03718575623105366
position:
  x: 8.987051732823657
  y: 2.4776860869721653
  z: -7.58595346991367e-05
timestamp: 1739103944.5453367
---
angular:
  x: -0.15348438284715754
  y: -0.004248499814256137
  z: 0.001432412663952586
linear:
  x: -5.078818812724996e-05
  y: -0.005886832705199916
  z: -0.0032532347938899167
orientation:
  w: 0.999306082279802
  x: -6.22977429108596e-05
  y: 9.684681362954248e-06
  z: 0.037247146787260724
position:
  x: 8.987058545918728
  y: 2.4777523871762384
  z: -8.324948637782048e-05
timestamp: 1739103944.7456176
---
angular:
  x: 0.06716879736610826
  y: 0.005809713765753398
  z: 0.000191551190515348
linear:
  x: -1.8895086177456394e-05
  y: 0.0033080418497447826
  z: -0.00413597536968847
orientation:
  w: 0.9993038073314853
  x: 1.4467651594024387e-05
  y: 8.949058546596341e-06
  z: 0.03730818091785193
position:
  x: 8.98706556857989
  y: 2.477828129638512
  z: -7.999568814468644e-05
timestamp: 1739103944.9463859
---
angular:
  x: 0.06653874501160384
  y: 0.006059202275669428
  z: 0.000420900294715438
linear:
  x: -2.3938498664723e-05
  y: 0.0032858825493161346
  z: 0.0056398914608499955
orientation:
  w: 0.9993014945899943
  x: -1.9203141847831613e-05
  y: 7.297134390892903e-06
  z: 0.03737007476838955
position:
  x: 8.987072545039794
  y: 2.477894612508039
  z: -7.585961198805502e-05
timestamp: 1739103945.146861
---
angular:
  x: -0.15347499111378432
  y: -0.004309250731276592
  z: 0.0014391425573146255
linear:
  x: -4.8717446946145636e-05
  y: -0.005887518729890389
  z: -0.003253473258846178
orientation:
  w: 0.9992991679110689
  x: -6.230187743947684e-05
  y: 9.66832421352672e-06
  z: 0.03743219252521526
position:
  x: 8.987079316205746
  y: 2.477960718374323
  z: -8.324978572235575e-05
timestamp: 1739103945.3463528
---
angular:
  x: 0.06716054705411008
  y: 0.005833956063294797
  z: 0.00020745320530028032
linear:
  x: -1.9970933424213588e-05
  y: 0.003306202012126935
  z: -0.004135972746033653
orientation:
  w: 0.9992968549596806
  x: 1.4459840024708543e-05
  y: 8.949080631757204e-06
  z: 0.037493937890256644
position:
  x: 8.9870862932615
  y: 2.478036269869604
  z: -7.999574215173527e-05
timestamp: 1739103945.5471325
---
angular:
  x: 0.06653017659209431
  y: 0.006083377153345391
  z: 0.0004366742058388014
linear:
  x: -2.5018574937054586e-05
  y: 0.003284034511755831
  z: 0.005639889122784466
orientation:
  w: 0.9992945045611764
  x: -1.9207628160689843e-05
  y: 7.291182292071794e-06
  z: 0.0375565271522649
position:
  x: 8.987093227363957
  y: 2.478102565787402
  z: -7.585966130274624e-05
timestamp: 1739103945.7470315
---
angular:
  x: -0.15346590891589496
  y: -0.004370327208477873
  z: 0.0014455937757125712
linear:
  x: -4.6629358727164446e-05
  y: -0.005888178706863237
  z: -0.0032536969805003354
orientation:
  w: 0.9992921400947382
  x: -6.230615998059404e-05
  y: 9.652141524505024e-06
  z: 0.03761934036711107
position:
  x: 8.987099956783876
  y: 2.478168485377859
  z: -8.32500513105669e-05
timestamp: 1739103945.9475162
---
angular:
  x: 0.06715247719390013
  y: 0.005858482561832211
  z: 0.00022293969333322903
linear:
  x: -2.106365846739778e-05
  y: 0.003304411923855299
  z: -0.004135972493912113
orientation:
  w: 0.9992897896777622
  x: 1.4452005524774446e-05
  y: 8.949256448316892e-06
  z: 0.03768177220917728
position:
  x: 8.987106888384659
  y: 2.4782438522249692
  z: -7.999577685706416e-05
timestamp: 1739103946.1473074
---
angular:
  x: 0.06652169905139277
  y: 0.006107830028089924
  z: 0.0004522459800250473
linear:
  x: -2.6113979924977018e-05
  y: 0.0032822105053106404
  z: 0.0056398856006813465
orientation:
  w: 0.9992874018052152
  x: -1.9212263590168523e-05
  y: 7.285287532764417e-06
  z: 0.037745041676965164
position:
  x: 8.987113780052796
  y: 2.4783099649517153
  z: -7.585968982800478e-05
timestamp: 1739103946.348366
---
angular:
  x: -0.1534567802344044
  y: -0.004431951689982445
  z: 0.0014520392382869763
linear:
  x: -4.4523499658730115e-05
  y: -0.005888839475008804
  z: -0.003253918160059884
orientation:
  w: 0.9992849993448544
  x: -6.231059392671437e-05
  y: 9.635934679786038e-06
  z: 0.03780854544799401
position:
  x: 8.987120467312428
  y: 2.4783756992101527
  z: -8.325029634224934e-05
timestamp: 1739103946.5476084
---
angular:
  x: 0.06714433607316875
  y: 0.005883277374008503
  z: 0.00023859567374410128
linear:
  x: -2.2170084500943257e-05
  y: 0.003302602059837349
  z: -0.004135972334834987
orientation:
  w: 0.9992826109436158
  x: 1.4443989224201655e-05
  y: 8.949480951172824e-06
  z: 0.03787166720634603
position:
  x: 8.98712735262886
  y: 2.4784508800816045
  z: -7.999579967767068e-05
timestamp: 1739103946.7480388
---
angular:
  x: 0.06651310807056854
  y: 0.00613254587541405
  z: 0.00046804582243677515
linear:
  x: -2.7221783625851453e-05
  y: 0.0032803595310219947
  z: 0.00563988205248599
orientation:
  w: 0.9992801848819668
  x: -1.9217022680634307e-05
  y: 7.279344686533154e-06
  z: 0.037935625472363024
position:
  x: 8.987134201019828
  y: 2.4785168070022157
  z: -7.585971249555318e-05
timestamp: 1739103946.9480264
---
angular:
  x: -0.15344748642019782
  y: -0.004494253107651461
  z: 0.0014585845414520403
linear:
  x: -4.239529547674656e-05
  y: -0.005889509707981221
  z: -0.003254142570534161
orientation:
  w: 0.9992777436543314
  x: -6.231510559069316e-05
  y: 9.619552189975216e-06
  z: 0.037999829754888255
position:
  x: 8.98714084548199
  y: 2.4785823530949496
  z: -8.325054124398712e-05
timestamp: 1739103947.149123
---
angular:
  x: 0.06713606745473992
  y: 0.005908347505974125
  z: 0.00025451326106199103
linear:
  x: -2.3286289680850183e-05
  y: 0.0033007612992780157
  z: -0.004135971352999237
orientation:
  w: 0.9992753164429722
  x: 1.4435829807198949e-05
  y: 8.949719048378594e-06
  z: 0.03806365273206634
position:
  x: 8.987147684087864
  y: 2.4786573448776767
  z: -7.9995817262285e-05
timestamp: 1739103947.3483286
---
angular:
  x: 0.06650436905876739
  y: 0.006157541485524849
  z: 0.0004841466249814984
linear:
  x: -2.8338911889989177e-05
  y: 0.003278472324521051
  z: 0.0056398796272319335
orientation:
  w: 0.9992728513114141
  x: -1.922189116251247e-05
  y: 7.273350237207578e-06
  z: 0.038128312440676576
position:
  x: 8.987154488878998
  y: 2.4787230825265385
  z: -7.585972810327662e-05
timestamp: 1739103947.5484295
---
angular:
  x: -0.1534379762752199
  y: -0.004557263118889113
  z: 0.0014652613242638875
linear:
  x: -4.0243955263507565e-05
  y: -0.005890191412367558
  z: -0.0032543712491838335
orientation:
  w: 0.9992703703732869
  x: -6.231970638792386e-05
  y: 9.60299771675311e-06
  z: 0.038193231312246556
position:
  x: 8.987161090099802
  y: 2.4787884365980704
  z: -8.325078280788101e-05
timestamp: 1739103947.7486384
---
angular:
  x: 0.06712767088925072
  y: 0.005933696527228827
  z: 0.00027068798869645634
linear:
  x: -2.4415763115176155e-05
  y: 0.0032988895761305124
  z: -0.004135969478055516
orientation:
  w: 0.999267903457259
  x: 1.4427517380213795e-05
  y: 8.949980612519575e-06
  z: 0.03825776825533086
position:
  x: 8.987167881288341
  y: 2.4788632357978364
  z: -7.99958309451454e-05
timestamp: 1739103947.9494004
---
angular:
  x: 0.06649549111240927
  y: 0.0061828132537933966
  z: 0.0005005027013690692
linear:
  x: -2.9471481775050182e-05
  y: 0.0032765532713491387
  z: 0.0056398780260794095
orientation:
  w: 0.9992653984100816
  x: -1.922684416633374e-05
  y: 7.26730363090377e-06
  z: 0.03832314076188963
position:
  x: 8.987174641682776
  y: 2.478928781092467
  z: -7.58597435539729e-05
timestamp: 1739103948.1487052
---
angular:
  x: -0.1534279617361408
  y: -0.004621189346541143
  z: 0.001472347470237726
linear:
  x: -3.808078228000262e-05
  y: -0.005890913330494423
  z: -0.003254615745824768
orientation:
  w: 0.9992628764368519
  x: -6.23244143656372e-05
  y: 9.58605146211803e-06
  z: 0.038388797831188384
position:
  x: 8.98718119749334
  y: 2.478993936724136
  z: -8.325104476408773e-05
timestamp: 1739103948.348843
---
angular:
  x: 0.06711830017872224
  y: 0.00595926842009339
  z: 0.0002891660818798431
linear:
  x: -2.5559796893075918e-05
  y: 0.003296747832206373
  z: -0.004135961096436825
orientation:
  w: 0.9992603666307014
  x: 1.4418458569101113e-05
  y: 8.94990375784847e-06
  z: 0.038454120625540184
position:
  x: 8.987187936301135
  y: 2.4790685239103976
  z: -7.999586345151105e-05
timestamp: 1739103948.5485644
---
angular:
  x: 0.06648473044885007
  y: 0.00620828428645567
  z: 0.0005211874165857045
linear:
  x: -3.061038437273658e-05
  y: 0.0032741253958820838
  z: 0.005639888495426763
orientation:
  w: 0.9992578154314006
  x: -1.9232169084566903e-05
  y: 7.260496420760799e-06
  z: 0.038520356652998085
position:
  x: 8.9871946437536
  y: 2.479133836366241
  z: -7.585981953533993e-05
timestamp: 1739103948.7499163
---
angular:
  x: -0.15341488380909082
  y: -0.004688001487030244
  z: 0.0014819781121156838
linear:
  x: -3.589496299744911e-05
  y: -0.005891881734579185
  z: -0.003254973271478045
orientation:
  w: 0.9992552428577951
  x: -6.232916780744248e-05
  y: 9.56681790923412e-06
  z: 0.038586988023943426
position:
  x: 8.987201144411513
  y: 2.4791987309373615
  z: -8.32514935726128e-05
timestamp: 1739103948.9498708
---
angular:
  x: 0.06710627536371211
  y: 0.005985087559459911
  z: 0.0003136764532053991
linear:
  x: -2.66771513057924e-05
  y: 0.0032938948354070997
  z: -0.00413592973893684
orientation:
  w: 0.9992526789863199
  x: 1.440790684659456e-05
  y: 8.948739934662647e-06
  z: 0.03865337308689805
position:
  x: 8.987207822007427
  y: 2.4792730329089006
  z: -7.99959842196149e-05
timestamp: 1739103949.1491196
---
angular:
  x: 0.06647132504175382
  y: 0.006234091636798094
  z: 0.0005476292053432734
linear:
  x: -3.17190106999117e-05
  y: 0.003271011570658386
  z: 0.005639921455469287
orientation:
  w: 0.9992500703716825
  x: -1.9237552090828694e-05
  y: 7.252556568149667e-06
  z: 0.03872074946982337
position:
  x: 8.987214469725416
  y: 2.4793380394855355
  z: -7.586000652720637e-05
timestamp: 1739103949.3496428
---
angular:
  x: -0.1533990036162404
  y: -0.004757856763789939
  z: 0.0014937874341256303
linear:
  x: -3.362806852094026e-05
  y: -0.005893047718711372
  z: -0.003255432991455795
orientation:
  w: 0.999247436716752
  x: -6.233363975848696e-05
  y: 9.5454352186167e-06
  z: 0.03878860964771234
position:
  x: 8.987220911186828
  y: 2.479402606315652
  z: -8.325211776255559e-05
timestamp: 1739103949.5500607
---
angular:
  x: 0.06709300587978688
  y: 0.006011396548467747
  z: 0.00034064638200106235
linear:
  x: -2.7764264404134926e-05
  y: 0.0032907438688651097
  z: -0.004135883198729969
orientation:
  w: 0.999244811266332
  x: 1.4396924054780836e-05
  y: 8.947175569561975e-06
  z: 0.03885623334793558
position:
  x: 8.987227528139107
  y: 2.4794765772768335
  z: -7.999614600054383e-05
timestamp: 1739103949.7500467
---
angular:
  x: 0.0664580830060119
  y: 0.006260487200498635
  z: 0.0005731931650112737
linear:
  x: -3.281121068480624e-05
  y: 0.0032679899290365202
  z: 0.0056399581047802865
orientation:
  w: 0.9992421427905744
  x: -1.9242642855663074e-05
  y: 7.24468464667571e-06
  z: 0.03892479477834753
position:
  x: 8.987234122739727
  y: 2.479541267475791
  z: -7.586018680919016e-05
timestamp: 1739103949.9502583
---
angular:
  x: -0.15338502048226885
  y: -0.004827401582617954
  z: 0.0015038275193835372
linear:
  x: -3.128513075272154e-05
  y: -0.005894031468391681
  z: -0.0032558173910000004
orientation:
  w: 0.9992394519165049
  x: -6.233803271063269e-05
  y: 9.525332998054801e-06
  z: 0.03899376561504146
position:
  x: 8.987240515739673
  y: 2.479605538778223
  z: -8.325260366060655e-05
timestamp: 1739103950.1504862
---
angular:
  x: 0.0670817360763189
  y: 0.006038275051532523
  z: 0.0003627366964637085
linear:
  x: -2.8898720201143914e-05
  y: 0.003288160981256902
  z: -0.004135854478352094
orientation:
  w: 0.999236772430017
  x: 1.4386966213973528e-05
  y: 8.946669115339921e-06
  z: 0.03906241590857835
position:
  x: 8.987247081039117
  y: 2.4796792349139207
  z: -7.99962126650719e-05
timestamp: 1739103950.3503304
---
angular:
  x: 0.06644674139860898
  y: 0.006287352503611884
  z: 0.0005943521095981888
linear:
  x: -3.396182538470985e-05
  y: 0.003265485906210451
  z: 0.005639976118633221
orientation:
  w: 0.9992340520434262
  x: -1.9247994290929667e-05
  y: 7.237709059921307e-06
  z: 0.039131941096829194
position:
  x: 8.987253628143423
  y: 2.4797436664837464
  z: -7.5860245186056e-05
timestamp: 1739103950.5507197
---
angular:
  x: -0.15337279573600338
  y: -0.004896271700348298
  z: 0.0015123755543418479
linear:
  x: -2.8939793205753754e-05
  y: -0.0058948789430922155
  z: -0.0032561334407375056
orientation:
  w: 0.9992313103274931
  x: -6.234302234348402e-05
  y: 9.506647862376793e-06
  z: 0.03920184286704547
position:
  x: 8.987259974913334
  y: 2.479807688415421
  z: -8.325292521244726e-05
timestamp: 1739103950.7509134
---
angular:
  x: 0.0670715028621078
  y: 0.0060655451645861645
  z: 0.0003823341910792603
linear:
  x: -3.0075834332523926e-05
  y: 0.0032858690909318487
  z: -0.00413583873924211
orientation:
  w: 0.999228581506973
  x: 1.437708039597788e-05
  y: 8.946850869486746e-06
  z: 0.039271384146935984
position:
  x: 8.987266490108665
  y: 2.4798811444157742
  z: -7.999619161720706e-05
timestamp: 1739103950.9512687
---
angular:
  x: 0.06643622208256822
  y: 0.0063145736766370515
  z: 0.0006135067208676119
linear:
  x: -3.5148600677643784e-05
  y: 0.0032632161071853645
  z: 0.005639983342726991
orientation:
  w: 0.9992258128057958
  x: -1.9253809888930202e-05
  y: 7.231242688104972e-06
  z: 0.039341766604931536
position:
  x: 8.987272990936512
  y: 2.479945344403723
  z: -7.586021276975025e-05
timestamp: 1739103951.1513224
---
angular:
  x: -0.153361431617839
  y: -0.004964998739340644
  z: 0.0015201784912471585
linear:
  x: -2.6587550147578922e-05
  y: -0.005895658711798537
  z: -0.003256417263513527
orientation:
  w: 0.9992230231014286
  x: -6.234856184878647e-05
  y: 9.488752447186716e-06
  z: 0.03941251231096933
position:
  x: 8.987279292304622
  y: 2.4800091390428407
  z: -8.325314301561165e-05
timestamp: 1739103951.3511434
---
angular:
  x: 0.06706172143996461
  y: 0.006093131860865334
  z: 0.0004007148987608831
linear:
  x: -3.128008672365686e-05
  y: 0.003283721093874673
  z: -0.0041358310906004616
orientation:
  w: 0.999220247080816
  x: 1.436699578613756e-05
  y: 8.947464327160857e-06
  z: 0.039482876507233255
position:
  x: 8.98728575810712
  y: 2.480082372261184
  z: -7.999610448251177e-05
timestamp: 1739103951.5511405
---
angular:
  x: 0.06642598811740913
  y: 0.006342088474015733
  z: 0.0006317609282207652
linear:
  x: -3.635741205397356e-05
  y: 0.0032610505980046702
  z: 0.005639983428700009
orientation:
  w: 0.9992174315548404
  x: -1.926006783259594e-05
  y: 7.225086404714389e-06
  z: 0.03955406494655043
position:
  x: 8.987292213237133
  y: 2.480146353696128
  z: -7.586011139525811e-05
timestamp: 1739103951.7516382
---
angular:
  x: -0.15335040072571937
  y: -0.00503388078806755
  z: 0.0015276600491993786
linear:
  x: -2.422435855669084e-05
  y: -0.005896410562757622
  z: -0.003256691689589582
orientation:
  w: 0.9992145948535278
  x: -6.23546231803946e-05
  y: 9.471294265555683e-06
  z: 0.039625616132698174
position:
  x: 8.987298469610462
  y: 2.480209930432482
  z: -8.325329368360362e-05
timestamp: 1739103951.9522614
---
angular:
  x: 0.06705199235217188
  y: 0.006120966568953092
  z: 0.0004185938372859558
linear:
  x: -3.249948513678346e-05
  y: 0.0032816234460974103
  z: -0.0041358290661408885
orientation:
  w: 0.9992117722658312
  x: 1.4356498531124134e-05
  y: 8.948373313164804e-06
  z: 0.03969677416609667
position:
  x: 8.987304886561306
  y: 2.480282947551668
  z: -7.999596293814526e-05
timestamp: 1739103952.1510997
---
angular:
  x: 0.06641573989151332
  y: 0.006369839459643501
  z: 0.0006495819024988917
linear:
  x: -3.757944407657964e-05
  y: 0.0032589218061737516
  z: 0.005639976849720075
orientation:
  w: 0.999208910316672
  x: -1.9266794236135473e-05
  y: 7.219184000895865e-06
  z: 0.03976874552262288
position:
  x: 8.987311296739108
  y: 2.480346715235684
  z: -7.585995182411015e-05
timestamp: 1739103952.3511593
---
angular:
  x: -0.15333950435447924
  y: -0.005102976038409502
  z: 0.001534983605596644
linear:
  x: -2.184829895586466e-05
  y: -0.005897151582287996
  z: -0.0032569687016424666
orientation:
  w: 0.9992060268798112
  x: -6.236128288060256e-05
  y: 9.454202996768173e-06
  z: 0.03984108267542885
position:
  x: 8.987317509029365
  y: 2.480410077798184
  z: -8.325339318696057e-05
timestamp: 1739103952.5514977
---
angular:
  x: 0.06704190707513849
  y: 0.006148958071032984
  z: 0.00043679867146308724
linear:
  x: -3.372054797843557e-05
  y: 0.0032794800699381924
  z: -0.004135831805262215
orientation:
  w: 0.9992031573245332
  x: 1.4345189403688025e-05
  y: 8.94953798919706e-06
  z: 0.039913031791700984
position:
  x: 8.987323878045665
  y: 2.4804828785714386
  z: -7.999575240025258e-05
timestamp: 1739103952.7511756
---
angular:
  x: 0.06640461414404039
  y: 0.00639768103867594
  z: 0.0006687409514645836
linear:
  x: -3.879228469185885e-05
  y: 0.003256631260048745
  z: 0.005639967154324438
orientation:
  w: 0.9992002469762581
  x: -1.9274444603413885e-05
  y: 7.213493670335349e-06
  z: 0.03998582272564149
position:
  x: 8.987330243836494
  y: 2.4805464222846996
  z: -7.585969762646111e-05
timestamp: 1739103952.9512959
---
angular:
  x: -0.15332734769398812
  y: -0.0051727431942717875
  z: 0.0015433516693861677
linear:
  x: -1.946815378279723e-05
  y: -0.005897992408916149
  z: -0.003257308988167533
orientation:
  w: 0.9991973128121139
  x: -6.236919395522444e-05
  y: 9.43708004849417e-06
  z: 0.04005903256540541
position:
  x: 8.98733641203211
  y: 2.480609547616058
  z: -8.325343915237954e-05
timestamp: 1739103953.15208
---
angular:
  x: 0.06703087546716432
  y: 0.006177084141890239
  z: 0.0004568943794780957
linear:
  x: -3.4935325727977675e-05
  y: 0.003277115747346167
  z: -0.00413583578615833
orientation:
  w: 0.9991943917708042
  x: 1.4332168333168328e-05
  y: 8.950852448102353e-06
  z: 0.04013187222450771
position:
  x: 8.987342731865027
  y: 2.4806821052709207
  z: -7.999543401256831e-05
timestamp: 1739103953.3530817
---
angular:
  x: 0.06639303143095909
  y: 0.006425756897347283
  z: 0.0006887986232818215
linear:
  x: -4.001484645947483e-05
  y: 0.0032542395171837055
  z: 0.005639954399748041
orientation:
  w: 0.9991914299592027
  x: -1.9283057962562662e-05
  y: 7.2079489829723575e-06
  z: 0.040205545292817106
position:
  x: 8.987349051677441
  y: 2.480745407911292
  z: -7.585935795819537e-05
timestamp: 1739103953.5528467
---
angular:
  x: -0.15331532625128275
  y: -0.00524289388136822
  z: 0.0015516049207270498
linear:
  x: -1.7080241112943676e-05
  y: -0.005898820172309364
  z: -0.0032576377692522277
orientation:
  w: 0.999188444117735
  x: -6.237764210290218e-05
  y: 9.420192864528267e-06
  z: 0.040279637062288695
position:
  x: 8.987355174406451
  y: 2.4808082931087574
  z: -8.325342393372681e-05
timestamp: 1739103953.7530947
---
angular:
  x: 0.0670202013111133
  y: 0.006205567247235202
  z: 0.00047628711998137573
linear:
  x: -3.617632295430302e-05
  y: 0.003274840228780267
  z: -0.004135844640712399
orientation:
  w: 0.9991854721226904
  x: 1.4319059287635998e-05
  y: 8.952390075686517e-06
  z: 0.040353339561625096
position:
  x: 8.987361444469096
  y: 2.4808806146670923
  z: -7.999508397456973e-05
timestamp: 1739103953.953232
---
angular:
  x: 0.0663818524849862
  y: 0.006454186774747597
  z: 0.0007080219997480386
linear:
  x: -4.126345764797712e-05
  y: 0.003251950134454314
  z: 0.005639937299801447
orientation:
  w: 0.9991824598292608
  x: -1.9291812635776046e-05
  y: 7.202521743677419e-06
  z: 0.04042785605863031
position:
  x: 8.987367718153674
  y: 2.4809436862566034
  z: -7.585899371683608e-05
timestamp: 1739103954.1534054
---
angular:
  x: -0.15330371147362135
  y: -0.005313469122403155
  z: 0.0015594860600633778
linear:
  x: -1.4670716238522749e-05
  y: -0.005899612494213253
  z: -0.003257945455444868
orientation:
  w: 0.99917942335495
  x: -6.238618180505073e-05
  y: 9.403475739698547e-06
  z: 0.04050278957811085
position:
  x: 8.987373795387217
  y: 2.4810063417286585
  z: -8.325337467926519e-05
timestamp: 1739103954.353702
---
angular:
  x: 0.06700983320198958
  y: 0.00623440076456967
  z: 0.0004949898932685924
linear:
  x: -3.7440920027787374e-05
  y: 0.0032726466479418882
  z: -0.004135856544331485
orientation:
  w: 0.9991764012986651
  x: 1.4306085498769812e-05
  y: 8.954079468365114e-06
  z: 0.04057731882479943
position:
  x: 8.987380015669755
  y: 2.4810784365539638
  z: -7.999472568748917e-05
timestamp: 1739103954.553874
---
angular:
  x: 0.06637091881676711
  y: 0.006482947998117971
  z: 0.0007266779247056914
linear:
  x: -4.25332509604816e-05
  y: 0.0032497257958364633
  z: 0.0056399182435348276
orientation:
  w: 0.999173339181523
  x: -1.9300595340228675e-05
  y: 7.197138201820629e-06
  z: 0.04065264867795742
position:
  x: 8.987386243253493
  y: 2.4811412847809318
  z: -7.585862211871575e-05
timestamp: 1739103954.7537432
---
angular:
  x: -0.15329226094024995
  y: -0.0053846072033950105
  z: 0.001567161723642455
linear:
  x: -1.223679656423693e-05
  y: -0.005900386831885613
  z: -0.003258241092699397
orientation:
  w: 0.9991702524836992
  x: -6.239477046755145e-05
  y: 9.386777370725303e-06
  z: 0.0407284000476576
position:
  x: 8.987392274984565
  y: 2.48120371643689
  z: -8.32533100519825e-05
timestamp: 1739103954.9542868
---
angular:
  x: 0.06699958019826092
  y: 0.006263556161737254
  z: 0.0005133827723775491
linear:
  x: -3.872376257897691e-05
  y: 0.0032704848835287447
  z: -0.004135869694720234
orientation:
  w: 0.9991671805276648
  x: 1.4293109734549457e-05
  y: 8.95587116208838e-06
  z: 0.040803738454905335
position:
  x: 8.987398445446376
  y: 2.4812755887468
  z: -7.999436448506703e-05
timestamp: 1739103955.154298
---
angular:
  x: 0.06636006980801652
  y: 0.006512024037123764
  z: 0.0007451024037544011
linear:
  x: -4.382052735662779e-05
  y: 0.0032475255975117114
  z: 0.005639897848556837
orientation:
  w: 0.9991640685563791
  x: -1.930947093974829e-05
  y: 7.19177342781849e-06
  z: 0.04087986890005913
position:
  x: 8.987404626882611
  y: 2.481338216612216
  z: -7.58582457776047e-05
timestamp: 1739103955.3541083
---
angular:
  x: -0.15328087572458204
  y: -0.0054563762691176255
  z: 0.0015747284112654191
linear:
  x: -9.778247768152078e-06
  y: -0.005901153505715132
  z: -0.0032585303324847753
orientation:
  w: 0.9991609315013686
  x: -6.240345209030766e-05
  y: 9.370037209288353e-06
  z: 0.040956427814555364
position:
  x: 8.98741061298514
  y: 2.4814004269145293
  z: -8.325323519035865e-05
timestamp: 1739103955.5541072
---
angular:
  x: 0.06698938069961138
  y: 0.006293031158493001
  z: 0.0005316111292547564
linear:
  x: -4.002339851813004e-05
  y: 0.0032683425047439333
  z: -0.004135884307863669
orientation:
  w: 0.9991578094620844
  x: 1.4280110641795422e-05
  y: 8.957738222220125e-06
  z: 0.041032566417011106
position:
  x: 8.987416733420732
  y: 2.4814720789421334
  z: -7.99939994362911e-05
timestamp: 1739103955.7559738
---
angular:
  x: 0.06634925895633448
  y: 0.006541414410413443
  z: 0.0007633907934442775
linear:
  x: -4.5123812595111474e-05
  y: 0.0032453418811839753
  z: 0.005639876198894803
orientation:
  w: 0.9991546474036048
  x: -1.9318398337216053e-05
  y: 7.186392801796747e-06
  z: 0.04110948974304762
position:
  x: 8.987422868534383
  y: 2.4815344884016115
  z: -7.585786484193974e-05
timestamp: 1739103955.9556563
---
angular:
  x: -0.1532694946631966
  y: -0.005528807137434319
  z: 0.0015822446621745862
linear:
  x: -7.293769898531605e-06
  y: -0.005901914295795181
  z: -0.0032588156400719325
orientation:
  w: 0.9991514596838525
  x: -6.241218602194027e-05
  y: 9.353203569466151e-06
  z: 0.041186850193518365
position:
  x: 8.98742880883726
  y: 2.481596478868364
  z: -8.325315351474794e-05
timestamp: 1739103956.1556273
---
angular:
  x: 0.06697917860102313
  y: 0.0063228203171980515
  z: 0.0005497855913198507
linear:
  x: -4.1337983840339994e-05
  y: 0.003266206610167894
  z: -0.004135899762054022
orientation:
  w: 0.9991482871756129
  x: 1.4267075310480992e-05
  y: 8.959653764719071e-06
  z: 0.04126378497198581
position:
  x: 8.98743487902932
  y: 2.4816679116053457
  z: -7.999363183472386e-05
timestamp: 1739103956.355848
---
angular:
  x: 0.06633843710363226
  y: 0.006571110720346847
  z: 0.0007816105597858906
linear:
  x: -4.644118765791258e-05
  y: 0.0032431650496257116
  z: 0.005639853451897181
orientation:
  w: 0.9991450745966826
  x: -1.9327373305182217e-05
  y: 7.180975867093782e-06
  z: 0.04134149832887148
position:
  x: 8.98744096764735
  y: 2.4817301033039247
  z: -7.58574811800597e-05
timestamp: 1739103956.5563462
---
angular:
  x: -0.15325816289569202
  y: -0.005601879756699391
  z: 0.001589666963235107
linear:
  x: -4.783310012361497e-06
  y: -0.005902666723056283
  z: -0.0032590969261641917
orientation:
  w: 0.9991418359178722
  x: -6.242097043715212e-05
  y: 9.336261904893679e-06
  z: 0.041419653971517846
position:
  x: 8.987446862130975
  y: 2.4817918753189656
  z: -8.32530689046096e-05
timestamp: 1739103956.755573
---
angular:
  x: 0.06696902505984029
  y: 0.0063529078155251445
  z: 0.0005676620483239326
linear:
  x: -4.2665397052261674e-05
  y: 0.0032641012067478807
  z: -0.004135918282880624
orientation:
  w: 0.9991386128884102
  x: 1.4254094431085565e-05
  y: 8.961592010108985e-06
  z: 0.04149737283171153
position:
  x: 8.987452882246608
  y: 2.4818630915239788
  z: -7.999326870310186e-05
timestamp: 1739103956.9585333
---
angular:
  x: 0.06632792964444881
  y: 0.006601013932654101
  z: 0.0007988270038028495
linear:
  x: -4.7742894755038105e-05
  y: 0.0032411064321701583
  z: 0.005639836545629729
orientation:
  w: 0.9991353505607679
  x: -1.933615733004947e-05
  y: 7.1755934529710495e-06
  z: 0.04157584436226353
position:
  x: 8.987458925873582
  y: 2.4819250737975618
  z: -7.58570981066603e-05
timestamp: 1739103957.1561694
---
angular:
  x: -0.15324801664470214
  y: -0.00567494946062538
  z: 0.0015961401798954993
linear:
  x: -2.2313946292619393e-06
  y: -0.00590330823656245
  z: -0.0032593263485907625
orientation:
  w: 0.9991320637121542
  x: -6.242939324795023e-05
  y: 9.319887359313094e-06
  z: 0.04165471495524063
position:
  x: 8.987464777349894
  y: 2.481986648931069
  z: -8.325295691663515e-05
timestamp: 1739103957.3579783
---
angular:
  x: 0.06696039878867882
  y: 0.006383429636051411
  z: 0.0005821966341602283
linear:
  x: -4.402909141066182e-05
  y: 0.0032624003463409272
  z: -0.004135945561668477
orientation:
  w: 0.9991287953091588
  x: 1.4242487011132477e-05
  y: 8.9640452804713e-06
  z: 0.04173308161239451
position:
  x: 8.98747075128772
  y: 2.4820576855221512
  z: -7.999292293388305e-05
timestamp: 1739103957.5565715
---
angular:
  x: 0.06631892834544445
  y: 0.006631516795107619
  z: 0.0008131957533021201
linear:
  x: -4.913701633349867e-05
  y: 0.003239388151989653
  z: 0.005639792472797756
orientation:
  w: 0.9991254888863208
  x: -1.934456606276072e-05
  y: 7.170539462021968e-06
  z: 0.04181216368524624
position:
  x: 8.987476752061932
  y: 2.482119497695915
  z: -7.585671962569152e-05
timestamp: 1739103957.7581317
---
angular:
  x: -0.15323806100239099
  y: -0.005748287412306868
  z: 0.0016018891015773234
linear:
  x: 2.9022485655786495e-07
  y: -0.005903923712651872
  z: -0.003259539267879006
orientation:
  w: 0.9991221567113966
  x: -6.243786878527111e-05
  y: 9.303534444918482e-06
  z: 0.04189166961729232
position:
  x: 8.987482560001755
  y: 2.482180896635468
  z: -8.325279798910429e-05
timestamp: 1739103957.956933
---
angular:
  x: 0.06695126674144936
  y: 0.006414256153076179
  z: 0.0005978740378066047
linear:
  x: -4.5435115817918056e-05
  y: 0.003260548018387554
  z: -0.004135982243171801
orientation:
  w: 0.999118841521747
  x: 1.4230320252273691e-05
  y: 8.966400616686526e-06
  z: 0.04197070684827318
position:
  x: 8.987488484849623
  y: 2.4822517467624334
  z: -7.999258183231939e-05
timestamp: 1739103958.1569195
---
angular:
  x: 0.06630863523136886
  y: 0.006661945849964235
  z: 0.0008299288355532899
linear:
  x: -5.0490754255066105e-05
  y: 0.003237391878397369
  z: 0.0056397698894791945
orientation:
  w: 0.9991154869120237
  x: -1.935338323164235e-05
  y: 7.165134931002405e-06
  z: 0.04205048616434284
position:
  x: 8.987494440149673
  y: 2.482313365332939
  z: -7.585632966317091e-05
timestamp: 1739103958.3576567
---
angular:
  x: -0.153227092757732
  y: -0.005822734003502828
  z: 0.001608937794405161
linear:
  x: 2.8823755628664544e-06
  y: -0.0059046278886014355
  z: -0.003259796455152562
orientation:
  w: 0.9991121050029473
  x: -6.244664205765519e-05
  y: 9.286510270761753e-06
  z: 0.04213072098549082
position:
  x: 8.98750020285265
  y: 2.4823745630345218
  z: -8.325268179035228e-05
timestamp: 1739103958.5570307
---
angular:
  x: 0.06694131982837764
  y: 0.006445170196349778
  z: 0.0006151286351758501
linear:
  x: -4.678768863729076e-05
  y: 0.0032585183988715536
  z: -0.0041360022316130575
orientation:
  w: 0.9991087395658504
  x: 1.4217478997327262e-05
  y: 8.968479999009431e-06
  z: 0.042210499174584
position:
  x: 8.987506077747394
  y: 2.482445207898273
  z: -7.999221016871672e-05
timestamp: 1739103958.7573228
---
angular:
  x: 0.06629812645284718
  y: 0.0066928780516292505
  z: 0.000847186757964213
linear:
  x: -5.189355770372035e-05
  y: 0.0032353148706141125
  z: 0.005639730928037482
orientation:
  w: 0.9991053341290864
  x: -1.9362316478576197e-05
  y: 7.159653702015121e-06
  z: 0.04229102610066086
position:
  x: 8.987511986769396
  y: 2.4825066193389955
  z: -7.585595703338971e-05
timestamp: 1739103958.9575138
---
angular:
  x: -0.15321608459838854
  y: -0.0058983816855463335
  z: 0.0016163095175698197
linear:
  x: 5.5067383213512795e-06
  y: -0.005905355776870698
  z: -0.0032600566734336455
orientation:
  w: 0.9991019003628797
  x: -6.24555352499549e-05
  y: 9.26919117836116e-06
  z: 0.04237202738447301
position:
  x: 8.987517703671584
  y: 2.4825676058480464
  z: -8.325260096826714e-05
timestamp: 1739103959.1573062
---
angular:
  x: 0.06693096032033966
  y: 0.006476242652998864
  z: 0.0006330311840079955
linear:
  x: -4.815077646645879e-05
  y: 0.003256414760723098
  z: -0.004136015165690921
orientation:
  w: 0.999098482942423
  x: 1.4204349382844504e-05
  y: 8.970468401494412e-06
  z: 0.04245257471480687
position:
  x: 8.987523528127815
  y: 2.482638037983442
  z: -7.999183668518095e-05
timestamp: 1739103959.3572714
---
angular:
  x: 0.06628721988938452
  y: 0.006723947806856378
  z: 0.0008651461921597121
linear:
  x: -5.325423306825114e-05
  y: 0.0032331651419616084
  z: 0.005639705996954761
orientation:
  w: 0.9990950252190427
  x: -1.9371414220565818e-05
  y: 7.154011526812557e-06
  z: 0.04253387069300217
position:
  x: 8.987529390577926
  y: 2.4826992366297835
  z: -7.585556626573536e-05
timestamp: 1739103959.5575533
---
angular:
  x: -0.15320436269454224
  y: -0.0059745081839678235
  z: 0.001623303523780892
linear:
  x: 8.108859173159861e-06
  y: -0.0059060837002538665
  z: -0.003260330451579962
orientation:
  w: 0.9990915383722441
  x: -6.246440504440206e-05
  y: 9.251649105254335e-06
  z: 0.042615653996955265
position:
  x: 8.987535061339102
  y: 2.4827600075463216
  z: -8.325250211357188e-05
timestamp: 1739103959.7572727
---
angular:
  x: 0.06692076244381555
  y: 0.006507854875314935
  z: 0.0006506917796983042
linear:
  x: -4.957168307433157e-05
  y: 0.003254317946586882
  z: -0.004136045397197655
orientation:
  w: 0.9990880679694213
  x: 1.4191306038637964e-05
  y: 8.972648277513875e-06
  z: 0.042696980680460586
position:
  x: 8.98754083492687
  y: 2.482830223710492
  z: -7.999149568099079e-05
timestamp: 1739103959.957262
---
angular:
  x: 0.066276092065021
  y: 0.00675519311145107
  z: 0.0008833065124944924
linear:
  x: -5.462969361390719e-05
  y: 0.003230987809767486
  z: 0.0056396872522850566
orientation:
  w: 0.9990845571599106
  x: -1.9380532357889024e-05
  y: 7.148296543041735e-06
  z: 0.04277905115687331
position:
  x: 8.98754665061389
  y: 2.482891207471431
  z: -7.58551824367737e-05
timestamp: 1739103960.1579273
---
angular:
  x: -0.15319259739365648
  y: -0.006051294167982495
  z: 0.0016308003886532601
linear:
  x: 1.0780796752650457e-05
  y: -0.005906825747288093
  z: -0.0032606074462668087
orientation:
  w: 0.9990810165517532
  x: -6.247336908730397e-05
  y: 9.233898629388746e-06
  z: 0.042861618934996445
position:
  x: 8.987552275211877
  y: 2.482951761614761
  z: -8.325240839475445e-05
timestamp: 1739103960.3586304
---
angular:
  x: 0.06691033221849402
