---
angular:
  x: -0.16724415925965785
  y: 0.01465825281637858
  z: -0.009678161181231881
linear:
  x: 0.008781416269746208
  y: -0.007642273029222041
  z: 0.006724269017820992
orientation:
  w: -0.00027300389423533553
  x: -0.00012816275114958638
  y: 0.0001313063812944957
  z: -0.9999999459009071
position:
  x: 6.938556763949045
  y: -2.093478683026018
  z: 7.761373721111575e-06
timestamp: 1739096394.7443311
---
angular:
  x: -0.17457818950111173
  y: -0.04744625077940478
  z: 0.01804894271289239
linear:
  x: -0.001918808118134165
  y: 0.0008683604714154851
  z: -0.005264199908281677
orientation:
  w: -0.00021757597256439498
  x: 6.362941947432407e-05
  y: -3.066953626978035e-05
  z: -0.9999999738356861
position:
  x: 6.938568252928962
  y: -2.0929391142150227
  z: -1.8958578730077225e-05
timestamp: 1739096394.9436178
---
angular:
  x: 0.2099514239083742
  y: 0.18062879033755905
  z: -0.11974061385987823
linear:
  x: -0.010242875252479548
  y: 0.006639236175216999
  z: 0.007706305771721777
orientation:
  w: -1.0557619845079561e-05
  x: -0.00012463665484250327
  y: 5.3640026535337256e-05
  z: -0.9999999907384941
position:
  x: 6.93857745329095
  y: -2.092921427797943
  z: -1.76512652391575e-05
timestamp: 1739096395.143927
---
angular:
  x: -0.006649659999497487
  y: 0.1706831159846009
  z: 0.13567944425412404
linear:
  x: -0.01700005320222004
  y: -0.00018119163222798002
  z: -0.007528438748541527
orientation:
  w: 6.742512809180969e-05
  x: -3.114847723171002e-05
  y: 6.453093761160184e-05
  z: -0.9999999951596912
position:
  x: 6.938574897603934
  y: -2.09242856155246
  z: -4.152448640248191e-05
timestamp: 1739096395.3440673
---
angular:
  x: -0.06818815437065598
  y: -0.03002287204814546
  z: 0.09983200621310433
linear:
  x: -0.0075108187188707215
  y: 0.0010061781109783987
  z: -0.0033097401115135235
orientation:
  w: 0.00016177348023703133
  x: 5.415506760741414e-06
  y: -0.00013079803397209448
  z: -0.9999999783459436
position:
  x: 6.938575343306621
  y: -2.092153977867005
  z: 7.646979418261812e-06
timestamp: 1739096395.5459712
---
angular:
  x: 0.07945349464056745
  y: 0.0933556792972296
  z: -0.18465372831901578
linear:
  x: -0.010316457893263093
  y: 0.0030175800033572834
  z: -0.011022892461406288
orientation:
  w: -0.00011091557114055246
  x: -2.2772768176253247e-05
  y: -7.741640465279588e-05
  z: -0.9999999905929188
position:
  x: 6.938528582561207
  y: -2.0918526876494523
  z: -3.2592429847516646e-05
timestamp: 1739096395.745158
---
angular:
  x: -0.06377424854589535
  y: -0.010665312231920156
  z: -0.06993637869339185
linear:
  x: -0.007206036035044134
  y: -0.0010141330411573856
  z: 0.005582710335280544
orientation:
  w: 8.239783488768849e-05
  x: -2.309340094493698e-05
  y: -3.173049257660219e-06
  z: -0.9999999963336117
position:
  x: 6.938586137614232
  y: -2.0917420577955315
  z: -6.193479074996511e-06
timestamp: 1739096395.9463966
---
angular:
  x: -0.13794027009102236
  y: -0.1277867894876052
  z: -0.1496359088809129
linear:
  x: 0.0010756795089276166
  y: -0.0026099407971232553
  z: -0.012338529186841458
orientation:
  w: -5.606574802201661e-05
  x: -9.335550230576292e-05
  y: -0.00010106793882201546
  z: -0.999999988963327
position:
  x: 6.938537658849192
  y: -2.091402784362614
  z: -2.6730818224074415e-05
timestamp: 1739096396.1457207
---
angular:
  x: -0.13539134080725113
  y: -0.09948002355774078
  z: -0.07857960349167877
linear:
  x: -0.0029077632378639766
  y: -0.007139889207742218
  z: -0.004907679839242889
orientation:
  w: -9.510873411564493e-05
  x: -9.298454625828302e-05
  y: 0.0001460548971981874
  z: -0.9999999804880848
position:
  x: 6.938572040769097
  y: -2.091034176700064
  z: 4.5333746785669593e-07
timestamp: 1739096396.3455267
---
angular:
  x: 0.010182939038161592
  y: -0.015127706382601134
  z: -0.016399585235088908
linear:
  x: 0.01035685950891832
  y: 0.0028060777682618384
  z: 0.005563864402730933
orientation:
  w: -8.401703372317159e-05
  x: 3.766333369536914e-05
  y: -2.4477267326828605e-05
  z: -0.9999999954617373
position:
  x: 6.938600789976818
  y: -2.090782292271292
  z: -9.882129562266417e-06
timestamp: 1739096396.5455017
---
angular:
  x: -0.023330504977768375
  y: -0.14762070681451755
  z: 0.038972464436676416
linear:
  x: 0.013391906152084826
  y: 0.001389192825827781
  z: -0.003515040401814398
orientation:
  w: -0.0001962755490681551
  x: -0.00016895255474273722
  y: 6.896181379332596e-06
  z: -0.9999999664416924
position:
  x: 6.938584766445814
  y: -2.0904256501262384
  z: -3.549201183115913e-05
timestamp: 1739096396.745618
---
angular:
  x: -0.0358720266605075
  y: -0.005585577031325794
  z: 0.06417092843995302
linear:
  x: 0.006250021453609689
  y: 0.0021493334838879764
  z: 0.007610437893492076
orientation:
  w: -5.8490639036580634e-05
  x: -0.00010411183136803039
  y: 8.747804729114283e-06
  z: -0.9999999928315239
position:
  x: 6.938559515031816
  y: -2.0903168007157182
  z: 9.439958411537608e-06
timestamp: 1739096396.9463067
---
angular:
  x: 0.15958796897365998
  y: -0.025498444151332657
  z: 0.011375074773815608
linear:
  x: 0.010520776992805438
  y: 0.005199447958029023
  z: -0.009191957456592738
orientation:
  w: 0.00013958504977093082
  x: 1.4610375465452151e-05
  y: -2.4801271062944766e-05
  z: -0.999999989843724
position:
  x: 6.938587484007748
  y: -2.0900064489932375
  z: 5.55270889797399e-06
timestamp: 1739096397.1478586
---
angular:
  x: -0.09802800398957477
  y: -0.08127396652321087
  z: -0.07765607312691372
linear:
  x: -0.0015281764865102522
  y: -0.006022371481883739
  z: -0.011641244738239213
orientation:
  w: -0.0001014924570801436
  x: -0.00011871184309630861
  y: 8.312631498765464e-05
  z: -0.9999999843483975
position:
  x: 6.9385755316832745
  y: -2.089695138603379
  z: -1.741136379636299e-05
timestamp: 1739096397.3466692
---
angular:
  x: 0.058717580671279225
  y: -0.13269625870028204
  z: 0.10313429211798741
linear:
  x: 2.8240327420328386e-05
  y: 0.0028438591310555256
  z: -0.01130993297910316
orientation:
  w: 0.0001708909732083883
  x: -1.4728794090237078e-05
  y: -7.842584506902892e-05
  z: -0.9999999822143621
position:
  x: 6.93857162017266
  y: -2.0894709337070307
  z: 1.6152004089435568e-05
timestamp: 1739096397.548555
---
angular:
  x: 0.048861694239998255
  y: -0.0174919293990929
  z: 0.041117575187238055
linear:
  x: 0.0030249807571643326
  y: 0.003442247185664991
  z: 0.0048266714688343475
orientation:
  w: -0.00023685024234273893
  x: -6.405687302190543e-05
  y: 0.0001307142808823778
  z: -0.9999999613562276
position:
  x: 6.93855101341709
  y: -2.0889354463179575
  z: -9.748873706201533e-06
timestamp: 1739096397.747824
---
angular:
  x: -0.11827804257059382
  y: -0.003856450072176256
  z: -0.07012988216156796
linear:
  x: -0.006711817369622292
  y: -0.004172422783782541
  z: 0.0018808215678637237
orientation:
  w: 0.00022474366366373428
  x: -1.7409816370225783e-05
  y: -4.756794385744209e-05
  z: -0.999999973462237
position:
  x: 6.938549448805317
  y: -2.0887064222638236
  z: -1.2147169209934805e-05
timestamp: 1739096397.946995
---
angular:
  x: 0.15395403431419874
  y: -0.06270455323265378
  z: 0.12210600170373474
linear:
  x: 0.0011304103153183041
  y: 0.012005068819420393
  z: -0.004450606600435507
orientation:
  w: -0.00014563006997574753
  x: -5.956700596106618e-05
  y: -9.925558693081321e-06
  z: -0.9999999875725688
position:
  x: 6.938569044896114
  y: -2.088414994070774
  z: -1.12894781710976e-05
timestamp: 1739096398.147685
---
angular:
  x: -0.2087334827861974
  y: -0.014901185372529033
  z: -0.10317853185158182
linear:
  x: -0.003955307035951339
  y: -0.013838887594741976
  z: -0.0013406480317738722
orientation:
  w: 3.431450197244522e-05
  x: 2.1667830890711975e-05
  y: -9.498485543436379e-05
  z: -0.9999999946654486
position:
  x: 6.938577019064782
  y: -2.0881435232350456
  z: -3.921239376908359e-05
timestamp: 1739096398.3489296
---
angular:
  x: -0.06860275603044341
  y: 0.06995275518203463
  z: -0.021884578713864115
linear:
  x: -0.014040488974770268
  y: 0.00046497828400660123
  z: 0.004910261115471529
orientation:
  w: -6.883614876339905e-05
  x: -6.401568371724271e-05
  y: -8.492451415281374e-05
  z: -0.999999991975702
position:
  x: 6.93858025923675
  y: -2.087835702688998
  z: -3.6082333513265397e-06
timestamp: 1739096398.547762
---
angular:
  x: -0.10364074833260964
  y: 0.09563493358841473
  z: 0.004680031726281862
linear:
  x: 0.011283455191787617
  y: -0.0014588445234919208
  z: -0.002349053134146147
orientation:
  w: -0.00014185551441221037
  x: -9.289743806062422e-05
  y: -0.00014546954089510937
  z: -0.9999999750428455
position:
  x: 6.938564192782781
  y: -2.0875410002639474
  z: -2.0250162383675385e-05
timestamp: 1739096398.7478359
---
angular:
  x: -0.28607759894428586
  y: -0.0749192383426548
  z: -0.08583249470751507
linear:
  x: -0.018693106949853436
  y: -0.013643236009639185
  z: -0.011995831592515823
orientation:
  w: -0.00011849406682556031
  x: 5.778458618729849e-05
  y: 2.5813281894472322e-05
  z: -0.9999999909768861
position:
  x: 6.93853708445348
  y: -2.0874253982385573
  z: -2.1357649331019135e-05
timestamp: 1739096398.9479563
---
angular:
  x: -0.03496261069663127
  y: 0.2225471560335768
  z: 0.07570840242115988
linear:
  x: -0.001976937778708143
  y: 0.003889176039344613
  z: -0.009932032120468112
orientation:
  w: 5.130865476327771e-06
  x: -0.00010609939843266142
  y: -0.00021360986524130785
  z: -0.9999999715437082
position:
  x: 6.938572167015299
  y: -2.0868565545260145
  z: -4.8304490741182815e-05
timestamp: 1739096399.1481543
---
angular:
  x: -0.06737684227728244
  y: -0.004323673756714044
  z: 0.026232602725939934
linear:
  x: -0.005491433413509975
  y: -0.002278314165232386
  z: 0.007319967497670675
orientation:
  w: -4.339792699832996e-05
  x: -5.636087951870042e-06
  y: -3.908785907473894e-05
  z: -0.9999999982784968
position:
  x: 6.938579070398851
  y: -2.086759356883352
  z: 6.074672344223708e-06
timestamp: 1739096399.3482938
---
angular:
  x: -0.1197465914221943
  y: -0.09489923121076677
  z: 0.14818645284451537
linear:
  x: 0.00843736878166383
  y: -0.001966045230829206
  z: -0.0013479446696233542
orientation:
  w: -8.6382863091402e-05
  x: 4.305913377899369e-05
  y: -0.00011791006134919393
  z: -0.9999999883905647
position:
  x: 6.938580873700993
  y: -2.08635898906684
  z: 6.982695732037081e-06
timestamp: 1739096399.5487707
---
angular:
  x: -0.03662065537097964
  y: -0.038955920172574106
  z: -0.03392651298332232
linear:
  x: 0.005164906796455825
  y: -0.003400528421470146
  z: -0.002580270859606567
orientation:
  w: 0.0002563352600401246
  x: 2.0872109136386173e-05
  y: 1.9448478032242413e-05
  z: -0.9999999667391726
position:
  x: 6.938566190171029
  y: -2.085949704855195
  z: -4.042706571151522e-06
timestamp: 1739096399.7493014
---
angular:
  x: 0.08807368544611568
  y: -0.011801447766034888
  z: 0.023752788274487454
linear:
  x: 0.006131782181708627
  y: 0.008180867165558917
  z: 0.0038307929210496645
orientation:
  w: -0.00010908197415625742
  x: 2.119587587654546e-05
  y: -2.358257305807824e-05
  z: -0.9999999935478601
position:
  x: 6.938540418489494
  y: -2.085665615307045
  z: -1.1549364041928134e-05
timestamp: 1739096399.948757
---
angular:
  x: -0.046513355482513105
  y: 0.08311642799440598
  z: 0.04742981734286713
linear:
  x: -0.0014150007051907504
  y: 0.003101481091076875
  z: 0.004181295013513564
orientation:
  w: -9.414571795972898e-05
  x: 5.358806618712518e-05
  y: 5.653038495504193e-05
  z: -0.9999999925346092
position:
  x: 6.9385908893812545
  y: -2.0855353317862644
  z: -1.8674842337834674e-05
timestamp: 1739096400.1488013
---
angular:
  x: -0.044225505031044575
  y: 0.06074377411293392
  z: -0.046056548647365955
linear:
  x: -0.000757328763501004
  y: -0.0015827482235811112
  z: 0.004523518650790472
orientation:
  w: -1.1802884567483873e-05
  x: -8.245701182041516e-05
  y: 0.00013232929521892416
  z: -0.9999999877752453
position:
  x: 6.93858263116645
  y: -2.0853444559367573
  z: -2.448608316355655e-05
timestamp: 1739096400.3488142
---
angular:
  x: -0.2758755380008024
  y: -0.08568687975256342
  z: 0.08644090973799233
linear:
  x: 0.003770693356785413
  y: -0.005321505712416082
  z: -0.008362792064379156
orientation:
  w: 9.609283236679773e-05
  x: 0.0001560348101066664
  y: -0.0003579686935822924
  z: -0.9999999191388567
position:
  x: 6.9386049383131105
  y: -2.08507913144799
  z: -2.092238197211327e-05
timestamp: 1739096400.549303
---
angular:
  x: 0.24673632549539126
  y: 0.024356975038877973
  z: 0.08412519088526675
linear:
  x: 0.00047247667266667073
  y: 0.014800971126923945
  z: -0.008814463824718346
orientation:
  w: -0.0001384349927148223
  x: 4.937800639780431e-05
  y: 0.00019179884679519678
  z: -0.9999999708053835
position:
  x: 6.93859806644669
  y: -2.0846349127442503
  z: -3.586924353266019e-05
timestamp: 1739096400.753252
---
angular:
  x: 0.0009894571355964568
  y: -0.06356931297394239
  z: 0.15873102713046394
linear:
  x: -0.010292219420016745
  y: 0.001115224600162156
  z: 0.0037968971250523
orientation:
  w: 0.00014939844122385842
  x: 5.47180493587566e-06
  y: -8.871556016617364e-05
  z: -0.9999999848898572
position:
  x: 6.938548739901519
  y: -2.0843813682373913
  z: 6.726217386496258e-06
timestamp: 1739096400.9519954
---
angular:
  x: 0.008228254570069298
  y: 0.018810090612296753
  z: -0.11697277450214896
linear:
  x: -0.0020754219121943258
  y: 0.0018040680219074384
  z: -0.0007063259536818019
orientation:
  w: 5.371002432645598e-05
  x: 3.953249605540142e-05
  y: -0.00012717823800262193
  z: -0.9999999896890555
position:
  x: 6.9385842007603475
  y: -2.083935082908597
  z: -1.0716170899205402e-05
timestamp: 1739096401.1500466
---
angular:
  x: -0.14077483112610015
  y: -0.06491561098699984
  z: -0.06324277503986139
linear:
  x: 0.004962378720853601
  y: -0.0033775169449322645
  z: -0.008993272164380735
orientation:
  w: -3.7462891535445862e-06
  x: -0.00010233805513555879
  y: -0.00012575446155190938
  z: -0.9999999868493515
position:
  x: 6.938586942043864
  y: -2.083877598976164
  z: -5.577634438827528e-07
timestamp: 1739096401.3497667
---
angular:
  x: 0.30401016844671397
  y: 0.04062048835453683
  z: -0.07936275034457774
linear:
  x: 0.006799655303072587
  y: 0.01502310473159812
  z: -0.008956841737065534
orientation:
  w: 0.00016375550715211118
  x: 6.580508005819611e-05
  y: -4.1797696208414744e-05
  z: -0.9999999835533888
position:
  x: 6.938578854801053
  y: -2.08388487218625
  z: -1.129437523388066e-06
timestamp: 1739096401.5497842
---
angular:
  x: -0.23577323676021988
  y: 0.2515339257771975
  z: 0.11435094635431324
linear:
  x: -0.012215075170679685
  y: -0.00011442879958873699
  z: 0.0012671994946728054
orientation:
  w: -0.00010983824006899206
  x: -0.00015709940616220923
  y: -0.00018548314424410008
  z: -0.9999999644256699
position:
  x: 6.938574258766813
  y: -2.083549189941517
  z: -6.97146998088205e-06
timestamp: 1739096401.749779
---
angular:
  x: 0.10230374483398993
  y: -0.008846946451286156
  z: 0.003221688194890736
linear:
  x: -0.003716807142921171
  y: 0.009409343674508758
  z: 0.006380417110951308
orientation:
  w: 4.574550966643194e-05
  x: -0.0002536821039296599
  y: -0.00013202875868983545
  z: -0.999999958060572
position:
  x: 6.938556706860358
  y: -2.083399727456578
  z: 3.7172902001163244e-05
timestamp: 1739096401.9504347
---
angular:
  x: -0.18392774452059915
  y: -0.02931476553370174
  z: 0.06428684155690609
linear:
  x: 0.0022946555917062223
  y: -0.007914772595065693
  z: -0.010856592811250362
orientation:
  w: -0.00012245186470179187
  x: -0.00012969324542888493
  y: -5.9382045778118745e-05
  z: -0.9999999823294877
position:
  x: 6.938536243772092
  y: -2.0831300299017617
  z: -2.2019621269207812e-05
timestamp: 1739096402.1528492
---
angular:
  x: 0.031066818314704578
  y: -0.07526421602753869
  z: -0.17601467343744143
linear:
  x: -0.003889130739591158
  y: 0.008779795459419896
  z: 0.004730769069896359
orientation:
  w: -0.00029573149431099874
  x: 9.246685543270466e-06
  y: 4.8335726485833335e-05
  z: -0.9999999550605189
position:
  x: 6.938548753244899
  y: -2.0828689730392447
  z: 6.387575302871373e-06
timestamp: 1739096402.3510711
---
angular:
  x: -0.15743273577633268
  y: 0.07256987497011964
  z: -0.031873172437138886
linear:
  x: 0.004013080695423263
  y: -0.007944750563391736
  z: 0.005587002303432151
orientation:
  w: 0.00016228202523742234
  x: -0.00012490592544458983
  y: -5.1630214498367715e-05
  z: -0.9999999776986874
position:
  x: 6.938565745257987
  y: -2.0823990513279487
  z: 1.783941759599117e-06
timestamp: 1739096402.5505116
---
angular:
  x: -0.05193556323128129
  y: -0.11104281481250608
  z: 0.08333959722425426
linear:
  x: 0.007313239512500158
  y: -0.005275754111177174
  z: -0.0036883229374515014
orientation:
  w: -6.0971306307703055e-05
  x: 5.443379729939846e-05
  y: 7.665813160422022e-05
  z: -0.9999999937214962
position:
  x: 6.938584656631176
  y: -2.082123236201669
  z: -1.8870060350388573e-05
timestamp: 1739096402.7506883
---
angular:
  x: 0.1568512350236968
  y: -0.06764373190781922
  z: -0.07162071228029077
linear:
  x: 0.0058434373932310345
  y: 0.009772160302522561
  z: -0.00444090510642067
orientation:
  w: 4.499498774798911e-05
  x: 7.131307296810221e-05
  y: -9.955250402847872e-05
  z: -0.9999999914895978
position:
  x: 6.938572143600452
  y: -2.081587844020634
  z: -1.4722386112192565e-05
timestamp: 1739096402.95082
---
angular:
  x: -0.21018991387290697
  y: 0.14700513628034337
  z: 0.05428341762070065
linear:
  x: 0.005293414263454694
  y: -0.008565403263102279
  z: -0.021596148551341
orientation:
  w: -0.0002129508446110397
  x: -0.0001347435748951869
  y: -2.2446660920048357e-05
  z: -0.9999999679961266
position:
  x: 6.938570363187209
  y: -2.081346676465744
  z: -4.203943495721674e-05
timestamp: 1739096403.15129
---
angular:
  x: -0.037552577058374934
  y: 0.05531474858847638
  z: 0.08171015482805025
linear:
  x: 0.00020126272589484446
  y: -0.0035858472579299878
  z: 0.016349662149315387
orientation:
  w: 0.0001191097303081754
  x: -2.738964177301171e-05
  y: 7.102052697122476e-05
  z: -0.9999999900093821
position:
  x: 6.9385342617014505
  y: -2.081041891849918
  z: -2.035265515145518e-05
timestamp: 1739096403.3514776
---
angular:
  x: 0.003812287381116275
  y: -0.01667719580036972
  z: -0.06691404628566835
linear:
  x: -0.020274575896757484
  y: 0.005397425760574754
  z: 0.010113634450005052
orientation:
  w: -0.00011674330217567001
  x: -8.596550187595839e-05
  y: 5.191214845223877e-05
  z: -0.9999999881430314
position:
  x: 6.938563100849317
  y: -2.0808102994785824
  z: -4.2425640749979565e-05
timestamp: 1739096403.5515301
---
angular:
  x: -0.0376389939839285
  y: -0.07054895976619775
  z: -0.0817278945147476
linear:
  x: 0.0018739834135332398
  y: 0.0023607560762157805
  z: 0.005817793572826437
orientation:
  w: 7.116173964957068e-05
  x: 5.286494241362589e-05
  y: -4.439942004251649e-05
  z: -0.999999995084998
position:
  x: 6.938578602543606
  y: -2.0804706831357906
  z: -2.106122059414295e-05
timestamp: 1739096403.7518466
---
angular:
  x: 0.375822137826953
  y: 0.13199646815961585
  z: 0.015399759262425544
linear:
  x: 0.0014746992614029161
  y: 0.022360369905899135
  z: -0.008722704476123623
orientation:
  w: 3.8010743892805994e-05
  x: -7.368102128550691e-05
  y: 0.00022083949759896677
  z: -0.9999999721781029
position:
  x: 6.938579837185211
  y: -2.079977483345026
  z: -1.790615530273404e-05
timestamp: 1739096403.9528039
---
angular:
  x: -0.15362199981703242
  y: 0.013535600494389188
  z: -0.07171289160662497
linear:
  x: 0.005319410624231285
  y: -0.0018584082051927254
  z: -0.0025034154102898678
orientation:
  w: 4.5314157105745006e-05
  x: -0.00016311952629757159
  y: -0.0001253917581567357
  z: -0.9999999778077769
position:
  x: 6.938581000453424
  y: -2.0795189615822482
  z: 8.659701642460549e-06
timestamp: 1739096404.1540835
---
angular:
  x: 0.01636838423644084
  y: -0.08611173808928524
  z: 0.021508206327472655
linear:
  x: 0.0010826506840378633
  y: -0.004564068160513781
  z: 0.0007514553278485075
orientation:
  w: 4.8799979954593675e-06
  x: 6.166168108403149e-06
  y: -2.5911404975182403e-05
  z: -0.9999999996333815
position:
  x: 6.938587538460811
  y: -2.0790648983390416
  z: -8.747139769102463e-07
timestamp: 1739096404.353361
